{"desc":"Seznam všech parkovišť","results":[{"gid":4,"id":530005,"lastUpdated":1582123042000,"lat":50.028584,"lng":14.406528,"name":"Braník","numOfFreePlaces":0,"numOfTakenPlaces":110,"pr":true,"totalNumOfPlaces":110},{"gid":4,"id":534001,"lastUpdated":1396247275000,"lat":50.0808,"lng":14.597429,"name":"Běchovice","numOfFreePlaces":91,"numOfTakenPlaces":1,"pr":true,"totalNumOfPlaces":92},{"gid":4,"id":179,"lastUpdated":1650372386000,"lat":50.084095,"lng":14.617082,"name":"Běchovice - střed","numOfFreePlaces":0,"numOfTakenPlaces":60,"pr":true,"totalNumOfPlaces":60},{"gid":4,"id":534015,"lastUpdated":1669632731000,"lat":50.07622,"lng":14.517897,"name":"Depo Hostivař","numOfFreePlaces":19,"numOfTakenPlaces":85,"pr":true,"totalNumOfPlaces":104},{"gid":4,"id":534002,"lastUpdated":1669632999000,"lat":50.109318,"lng":14.441252,"name":"Holešovice","numOfFreePlaces":3,"numOfTakenPlaces":71,"pr":true,"totalNumOfPlaces":74},{"gid":4,"id":534016,"lastUpdated":1669632897000,"lat":50.125168,"lng":14.514741,"name":"Letňany","numOfFreePlaces":24,"numOfTakenPlaces":609,"pr":true,"totalNumOfPlaces":633},{"gid":4,"id":534014,"lastUpdated":1669632714000,"lat":50.126156,"lng":14.472344,"name":"Ládví","numOfFreePlaces":17,"numOfTakenPlaces":61,"pr":true,"totalNumOfPlaces":78},{"gid":4,"id":534013,"lastUpdated":1527826742000,"lat":50.05053,"lng":14.350451,"name":"Nové Butovice","numOfFreePlaces":0,"numOfTakenPlaces":57,"pr":true,"totalNumOfPlaces":57},{"gid":4,"id":177,"lastUpdated":1648041375000,"lat":50.05531,"lng":14.53911,"name":"Nádraží Hostivař","numOfFreePlaces":0,"numOfTakenPlaces":74,"pr":true,"totalNumOfPlaces":74},{"gid":4,"id":534005,"lastUpdated":1669632989000,"lat":50.02662,"lng":14.509208,"name":"Opatov","numOfFreePlaces":62,"numOfTakenPlaces":146,"pr":true,"totalNumOfPlaces":208},{"gid":4,"id":534007,"lastUpdated":1656646204000,"lat":49.986687,"lng":14.36348,"name":"Radotín","numOfFreePlaces":35,"numOfTakenPlaces":21,"pr":true,"totalNumOfPlaces":56},{"gid":4,"id":534004,"lastUpdated":1669633007000,"lat":50.10684,"lng":14.56221,"name":"Rajská zahrada","numOfFreePlaces":11,"numOfTakenPlaces":77,"pr":true,"totalNumOfPlaces":88},{"gid":4,"id":534012,"lastUpdated":1669633001000,"lat":50.069622,"lng":14.507447,"name":"Skalka 1","numOfFreePlaces":39,"numOfTakenPlaces":64,"pr":true,"totalNumOfPlaces":103},{"gid":4,"id":174,"lastUpdated":1537445018000,"lat":50.11548,"lng":14.437327,"name":"Troja","numOfFreePlaces":0,"numOfTakenPlaces":269,"pr":true,"totalNumOfPlaces":269},{"gid":4,"id":534017,"lastUpdated":1669632833000,"lat":50.032074,"lng":14.492015,"name":"Westfield Chodov","numOfFreePlaces":149,"numOfTakenPlaces":504,"pr":true,"totalNumOfPlaces":653},{"gid":4,"id":178,"lastUpdated":1582120383000,"lat":50.061455,"lng":14.506568,"name":"Zahradní Město","numOfFreePlaces":0,"numOfTakenPlaces":54,"pr":true,"totalNumOfPlaces":54},{"gid":4,"id":534008,"lastUpdated":1669632988000,"lat":50.054527,"lng":14.28977,"name":"Zličín 1","numOfFreePlaces":0,"numOfTakenPlaces":83,"pr":true,"totalNumOfPlaces":83},{"gid":4,"id":534009,"lastUpdated":1669632984000,"lat":50.053432,"lng":14.290852,"name":"Zličín 2","numOfFreePlaces":0,"numOfTakenPlaces":61,"pr":true,"totalNumOfPlaces":61},{"gid":4,"id":534011,"lastUpdated":1669633005000,"lat":50.110535,"lng":14.582672,"name":"Černý Most 2","numOfFreePlaces":82,"numOfTakenPlaces":46,"pr":true,"totalNumOfPlaces":128},{"gid":10,"id":534202,"lastUpdated":1669632980000,"lat":50.080963,"lng":14.433042,"name":"Slovan","numOfFreePlaces":127,"numOfTakenPlaces":353,"pr":false,"totalNumOfPlaces":480},{"gid":10,"id":534201,"lastUpdated":1669632988000,"lat":50.083508,"lng":14.434239,"name":"Wilsonova","numOfFreePlaces":389,"numOfTakenPlaces":75,"pr":false,"totalNumOfPlaces":464}]}